{'business_status': 'OPERATIONAL', 'geometry': {'location': {'lat': 52.220461, 'lng': 21.040628}, 'viewport': {'northeast': {'lat': 52.2223948302915, 'lng': 21.04384765}, 'southwest': {'lat': 52.2196968697085, 'lng': 21.03811945}}}, 'icon': 'https://maps.gstatic.com/mapfiles/place_api/icons/v1/png_71/stadium-71.png', 'icon_background_color': '#4DB546', 'icon_mask_base_uri': 'https://maps.gstatic.com/mapfiles/place_api/icons/v2/stadium_pinlet', 'name': "Marshall Józef Piłsudski's Municipal Stadium of Legia Warsaw", 'photos': [{'height': 1215, 'html_attributions': ['<a href="https://maps.google.com/maps/contrib/113409969552122276682">Stadion Miejski Legii Warszawa im. Marszałka J. Piłsudskiego</a>'], 'photo_reference': 'Aap_uEDpWA3JqIxbb5NVIO8B_9FEAjcZ-_Fc1ZTd0gW6VNrw60oFmJlD87lnWYe2tJNZUmC2rryufum42Lkiu64UVbztkLUW_4P1eWf331Lr1ZslRU3ifV-NKKEq-kWlpfSWiKYr-JoT-3g1-OOJPXpP4ZVv351SuJwA-LWRbIFCvsVFwt0f', 'width': 1900}], 'place_id': 'ChIJj5n80gLNHkcRYTaiN_HGZu0', 'plus_code': {'compound_code': '62CR+57 Warsaw, Poland', 'global_code': '9G4362CR+57'}, 'rating': 4.7, 'reference': 'ChIJj5n80gLNHkcRYTaiN_HGZu0', 'scope': 'GOOGLE', 'types': ['stadium', 'point_of_interest', 'establishment'], 'user_ratings_total': 11088, 'vicinity': 'Łazienkowska 3, Warszawa'}
{'business_status': 'OPERATIONAL', 'geometry': {'location': {'lat': 52.2129318, 'lng': 21.0114598}, 'viewport': {'northeast': {'lat': 52.2140080302915, 'lng': 21.0124611302915}, 'southwest': {'lat': 52.2113100697085, 'lng': 21.0097631697085}}}, 'icon': 'https://maps.gstatic.com/mapfiles/place_api/icons/v1/png_71/stadium-71.png', 'icon_background_color': '#4DB546', 'icon_mask_base_uri': 'https://maps.gstatic.com/mapfiles/place_api/icons/v2/stadium_pinlet', 'name': 'Stadion Politechniki Warszawskiej Syrenka', 'photos': [{'height': 2988, 'html_attributions': ['<a href="https://maps.google.com/maps/contrib/100055236322107462184">Barteq Ostrowski</a>'], 'photo_reference': 'Aap_uEBUiH3meLfztdx_V8D9xt2Jm-pZVdIP_YuTUntacfeeeo_zEksomelz0jZUYEDT9KSQV6mpXwlQwr4tHLw7kyDsdBVGUf2CR_7v4CWb1Eofy4SO49MB2xc2owl3K4tlPtU3XzrkNRKO7NBZTTnivXJwxPneALTQRALJSllmidWKAwsk', 'width': 5312}], 'place_id': 'ChIJhyJQNMPMHkcR4dNeL4I5ZZQ', 'plus_code': {'compound_code': '6276+5H Warsaw, Poland', 'global_code': '9G436276+5H'}, 'rating': 4.3, 'reference': 'ChIJhyJQNMPMHkcR4dNeL4I5ZZQ', 'scope': 'GOOGLE', 'types': ['stadium', 'point_of_interest', 'establishment'], 'user_ratings_total': 355, 'vicinity': 'Stefana Batorego 10a, Warszawa'}
{'business_status': 'OPERATIONAL', 'geometry': {'location': {'lat': 52.21977749999999, 'lng': 21.0378754}, 'viewport': {'northeast': {'lat': 52.22103703029149, 'lng': 21.03863218029151}, 'southwest': {'lat': 52.2183390697085, 'lng': 21.0359342197085}}}, 'icon': 'https://maps.gstatic.com/mapfiles/place_api/icons/v1/png_71/generic_business-71.png', 'icon_background_color': '#7B9EB0', 'icon_mask_base_uri': 'https://maps.gstatic.com/mapfiles/place_api/icons/v2/generic_pinlet', 'name': 'Legia Tennis Stadium', 'opening_hours': {'open_now': True}, 'photos': [{'height': 3024, 'html_attributions': ['<a href="https://maps.google.com/maps/contrib/100888753366084082994">Darek Nowak</a>'], 'photo_reference': 'Aap_uEAiJ6o6T1B-skCKuJzZojXoinaUIOikltQPIHDCrQmTfT09QR7BXpGz2iOVCv0B8u0rUfNhHCtw1N1YFWgxvUcHduqtO6N5tf3d5kSBs3sRbcTIOpThXGnHaPqecxrtS0x0Mo81Smm2-ZSsM1_DaaCvsprcZbK9yAqMtMejgENA1ytQ', 'width': 4032}], 'place_id': 'ChIJPeqAFh3NHkcR7N4SkNnglkM', 'plus_code': {'compound_code': '629Q+W5 Warsaw, Poland', 'global_code': '9G43629Q+W5'}, 'rating': 4.2, 'reference': 'ChIJPeqAFh3NHkcR7N4SkNnglkM', 'scope': 'GOOGLE', 'types': ['stadium', 'point_of_interest', 'establishment'], 'user_ratings_total': 164, 'vicinity': 'Myśliwiecka 4A, Warszawa'}
{'business_status': 'OPERATIONAL', 'geometry': {'location': {'lat': 52.2394957, 'lng': 21.0457909}, 'viewport': {'northeast': {'lat': 52.24494374999998, 'lng': 21.05349355}, 'southwest': {'lat': 52.23533515000002, 'lng': 21.03880175}}}, 'icon': 'https://maps.gstatic.com/mapfiles/place_api/icons/v1/png_71/stadium-71.png', 'icon_background_color': '#4DB546', 'icon_mask_base_uri': 'https://maps.gstatic.com/mapfiles/place_api/icons/v2/stadium_pinlet', 'name': 'PGE Narodowy', 'opening_hours': {'open_now': True}, 'photos': [{'height': 786, 'html_attributions': ['<a href="https://maps.google.com/maps/contrib/103473055360361893116">PGE Narodowy</a>'], 'photo_reference': 'Aap_uED4Sf8caIh3L4kVjtyPeEVwDaH5OEe3bPplvfC2mvmLvedQBhTrxg8IQolAfZCbuY9vmAWbV6Rct7wpXwQ1SEJCKzj5hDC_6t2-ANYJvE7b0aMwSeEyXZb9num6ICS3nf_k3f0unig7K6mmPljCP1LXxlBMX0UmI_ZoQ_xl-0RQdc-4', 'width': 1400}], 'place_id': 'ChIJW1rdqlPMHkcRixi1GPq-Q2I', 'plus_code': {'compound_code': '62QW+Q8 Warsaw, Poland', 'global_code': '9G4362QW+Q8'}, 'rating': 4.6, 'reference': 'ChIJW1rdqlPMHkcRixi1GPq-Q2I', 'scope': 'GOOGLE', 'types': ['stadium', 'point_of_interest', 'establishment'], 'user_ratings_total': 45665, 'vicinity': 'Aleja Księcia Józefa Poniatowskiego 1, Warszawa'}
{'business_status': 'CLOSED_TEMPORARILY', 'geometry': {'location': {'lat': 52.228322, 'lng': 21.0091941}, 'viewport': {'northeast': {'lat': 52.2295742802915, 'lng': 21.0105980802915}, 'southwest': {'lat': 52.2268763197085, 'lng': 21.0079001197085}}}, 'icon': 'https://maps.gstatic.com/mapfiles/place_api/icons/v1/png_71/stadium-71.png', 'icon_background_color': '#4DB546', 'icon_mask_base_uri': 'https://maps.gstatic.com/mapfiles/place_api/icons/v2/stadium_pinlet', 'name': 'Mój Gabinet', 'permanently_closed': True, 'place_id': 'ChIJ0ytj7IvNHkcRQTFYuhM81NU', 'plus_code': {'compound_code': '62H5+8M Warsaw, Poland', 'global_code': '9G4362H5+8M'}, 'reference': 'ChIJ0ytj7IvNHkcRQTFYuhM81NU', 'scope': 'GOOGLE', 'types': ['stadium', 'point_of_interest', 'establishment'], 'vicinity': 'Nowogrodzka 44, Warszawa'}
{'business_status': 'CLOSED_TEMPORARILY', 'geometry': {'location': {'lat': 52.2292456, 'lng': 21.0425094}, 'viewport': {'northeast': {'lat': 52.2305945802915, 'lng': 21.04385838029151}, 'southwest': {'lat': 52.2278966197085, 'lng': 21.0411604197085}}}, 'icon': 'https://maps.gstatic.com/mapfiles/place_api/icons/v1/png_71/stadium-71.png', 'icon_background_color': '#4DB546', 'icon_mask_base_uri': 'https://maps.gstatic.com/mapfiles/place_api/icons/v2/stadium_pinlet', 'name': 'ŚcieżkaŚcieżek', 'permanently_closed': True, 'photos': [{'height': 3968, 'html_attributions': ['<a href="https://maps.google.com/maps/contrib/105384274169765216905">Saucebox Saucebox</a>'], 'photo_reference': 'Aap_uEBzxCfXi8pvhXAmqTKUDEB1OZSm7C5ZYWir16bPF7w1VpH2xveJHe_xD2mKULy-bR_7t5PBPdY2xT3UBnLcoo_xXR_M_8O5_sQZwPrlcF80itU9icNGdOVdsdc8ZH3zeNaQG9BYC7htgcSZRoFt0WzZKwMjJKoSlVOL67ErJU5Bn6Ap', 'width': 8192}], 'place_id': 'ChIJQx9NWfHNHkcR6pwS_RAR90c', 'plus_code': {'compound_code': '62HV+M2 Warsaw, Poland', 'global_code': '9G4362HV+M2'}, 'rating': 4, 'reference': 'ChIJQx9NWfHNHkcR6pwS_RAR90c', 'scope': 'GOOGLE', 'types': ['stadium', 'point_of_interest', 'establishment'], 'user_ratings_total': 1, 'vicinity': 'Warsaw'}
{'business_status': 'CLOSED_TEMPORARILY', 'geometry': {'location': {'lat': 52.2379603, 'lng': 21.0426456}, 'viewport': {'northeast': {'lat': 52.2393917802915, 'lng': 21.0442263802915}, 'southwest': {'lat': 52.2366938197085, 'lng': 21.0415284197085}}}, 'icon': 'https://maps.gstatic.com/mapfiles/place_api/icons/v1/png_71/stadium-71.png', 'icon_background_color': '#4DB546', 'icon_mask_base_uri': 'https://maps.gstatic.com/mapfiles/place_api/icons/v2/stadium_pinlet', 'name': 'Drakkar Arena - Polish Vikings Esports', 'permanently_closed': True, 'place_id': 'ChIJGQZx0tHNHkcRzfL3hF5nW6k', 'plus_code': {'compound_code': '62QV+53 Warsaw, Poland', 'global_code': '9G4362QV+53'}, 'reference': 'ChIJGQZx0tHNHkcRzfL3hF5nW6k', 'scope': 'GOOGLE', 'types': ['stadium', 'point_of_interest', 'establishment'], 'vicinity': 'Wybrzeże Szczecińskie 1, Warszawa'}
{'business_status': 'OPERATIONAL', 'geometry': {'location': {'lat': 52.24018460000001, 'lng': 21.0417441}, 'viewport': {'northeast': {'lat': 52.2415575302915, 'lng': 21.0431299802915}, 'southwest': {'lat': 52.2388595697085, 'lng': 21.0404320197085}}}, 'icon': 'https://maps.gstatic.com/mapfiles/place_api/icons/v1/png_71/stadium-71.png', 'icon_background_color': '#4DB546', 'icon_mask_base_uri': 'https://maps.gstatic.com/mapfiles/place_api/icons/v2/stadium_pinlet', 'name': 'Brama nr 7', 'photos': [{'height': 3016, 'html_attributions': ['<a href="https://maps.google.com/maps/contrib/105156923563001453420">Ирина Петраш</a>'], 'photo_reference': 'Aap_uEBGXhI1n2Iy0tzEHZ0IPoC1FTC9Qlwr2tAO7Kks-OXyTNRUMXmXM7xMZsv7QEWAKOvmTMZ1nQzgAb8ruG_CzeoLRcE-3jvePOh4rxVnFC4Td6pY50kfDl5CZjXsmBco9e2Orjj-BiJnBPJQcQlkXk5_enaW9kwCjxvxYlPRvR_TsAot', 'width': 4032}], 'place_id': 'ChIJRV4b3Q3NHkcRpVZ1UMyhe4M', 'plus_code': {'compound_code': '62RR+3M Warsaw, Poland', 'global_code': '9G4362RR+3M'}, 'rating': 4.5, 'reference': 'ChIJRV4b3Q3NHkcRpVZ1UMyhe4M', 'scope': 'GOOGLE', 'types': ['stadium', 'point_of_interest', 'establishment'], 'user_ratings_total': 62, 'vicinity': 'Warsaw'}
{'business_status': 'OPERATIONAL', 'geometry': {'location': {'lat': 52.220876, 'lng': 21.0385287}, 'viewport': {'northeast': {'lat': 52.2226331302915, 'lng': 21.0399541802915}, 'southwest': {'lat': 52.2199351697085, 'lng': 21.0372562197085}}}, 'icon': 'https://maps.gstatic.com/mapfiles/place_api/icons/v1/png_71/stadium-71.png', 'icon_background_color': '#4DB546', 'icon_mask_base_uri': 'https://maps.gstatic.com/mapfiles/place_api/icons/v2/stadium_pinlet', 'name': 'Boisko Treningowe Legii Warszawa.', 'photos': [{'height': 2448, 'html_attributions': ['<a href="https://maps.google.com/maps/contrib/110541649086995283609">ALESSIA Printex</a>'], 'photo_reference': 'Aap_uEDI8RK8y4e0cxVCz2KdvU3GL69NiA-yQsHLUNuNLHTDE1XFYUUT2-a2IEK-tZtigAMtTPHsYWPmlcuNhfCmOrROcZhVGwjzlZy0OeBXYqQMh6d0b4hBP6Jz1gtLe6xkJtLoEOBBbv8SqkO3wH_mHgoITGk5EX4yaMELm9lECL4dq2Ek', 'width': 3264}], 'place_id': 'ChIJlffKMR3NHkcRXUIjl_lQkl4', 'plus_code': {'compound_code': '62CQ+9C Warsaw, Poland', 'global_code': '9G4362CQ+9C'}, 'rating': 5, 'reference': 'ChIJlffKMR3NHkcRXUIjl_lQkl4', 'scope': 'GOOGLE', 'types': ['stadium', 'point_of_interest', 'establishment'], 'user_ratings_total': 7, 'vicinity': 'Ujazdów, 00 001, Warszawa'}
{'business_status': 'OPERATIONAL', 'geometry': {'location': {'lat': 52.23792900000001, 'lng': 21.0437289}, 'viewport': {'northeast': {'lat': 52.2392557802915, 'lng': 21.0451043302915}, 'southwest': {'lat': 52.2365578197085, 'lng': 21.0424063697085}}}, 'icon': 'https://maps.gstatic.com/mapfiles/place_api/icons/v1/png_71/stadium-71.png', 'icon_background_color': '#4DB546', 'icon_mask_base_uri': 'https://maps.gstatic.com/mapfiles/place_api/icons/v2/stadium_pinlet', 'name': 'Brama nr 4', 'place_id': 'ChIJbVLYqd3NHkcRbQHBWckVCag', 'plus_code': {'compound_code': '62QV+5F Warsaw, Poland', 'global_code': '9G4362QV+5F'}, 'rating': 5, 'reference': 'ChIJbVLYqd3NHkcRbQHBWckVCag', 'scope': 'GOOGLE', 'types': ['stadium', 'point_of_interest', 'establishment'], 'user_ratings_total': 1, 'vicinity': 'Warsaw'}
{'business_status': 'OPERATIONAL', 'geometry': {'location': {'lat': 52.2410152, 'lng': 21.0428136}, 'viewport': {'northeast': {'lat': 52.2424094302915, 'lng': 21.04401448029151}, 'southwest': {'lat': 52.2397114697085, 'lng': 21.0413165197085}}}, 'icon': 'https://maps.gstatic.com/mapfiles/place_api/icons/v1/png_71/stadium-71.png', 'icon_background_color': '#4DB546', 'icon_mask_base_uri': 'https://maps.gstatic.com/mapfiles/place_api/icons/v2/stadium_pinlet', 'name': 'Brama nr 9', 'place_id': 'ChIJ9Y8nsXjNHkcRlTWlvccY0UU', 'plus_code': {'compound_code': '62RV+C4 Warsaw, Poland', 'global_code': '9G4362RV+C4'}, 'rating': 5, 'reference': 'ChIJ9Y8nsXjNHkcRlTWlvccY0UU', 'scope': 'GOOGLE', 'types': ['stadium', 'point_of_interest', 'establishment'], 'user_ratings_total': 4, 'vicinity': 'Warsaw'}
{'business_status': 'OPERATIONAL', 'geometry': {'location': {'lat': 52.2377648, 'lng': 21.04730159999999}, 'viewport': {'northeast': {'lat': 52.2391137802915, 'lng': 21.0486505802915}, 'southwest': {'lat': 52.2364158197085, 'lng': 21.04595261970849}}}, 'icon': 'https://maps.gstatic.com/mapfiles/place_api/icons/v1/png_71/stadium-71.png', 'icon_background_color': '#4DB546', 'icon_mask_base_uri': 'https://maps.gstatic.com/mapfiles/place_api/icons/v2/stadium_pinlet', 'name': 'Brama nr 3', 'photos': [{'height': 3000, 'html_attributions': ['<a href="https://maps.google.com/maps/contrib/110466322302438851881">Błażej K</a>'], 'photo_reference': 'Aap_uEBJdXTy4Cr-QVtr7g9FizsGAX6rwv0SAqNpRGojnkgzfK0EToYMSrnNY0ofVEOGqOJqqVKVGU5J8avBw2Qwxf5lKDfSOG7PVTWlqH6WMWo9qmFzUzfMBuPkinXHe23d-Pls9oYV7sg_R0vQi-DjGizYLYaG7u3fUtsOxtoxyugvjnqP', 'width': 4000}], 'place_id': 'ChIJffYCbxzNHkcRyrxMfX90KpE', 'plus_code': {'compound_code': '62QW+4W Warsaw, Poland', 'global_code': '9G4362QW+4W'}, 'rating': 5, 'reference': 'ChIJffYCbxzNHkcRyrxMfX90KpE', 'scope': 'GOOGLE', 'types': ['stadium', 'point_of_interest', 'establishment'], 'user_ratings_total': 3, 'vicinity': 'Warsaw'}
{'business_status': 'OPERATIONAL', 'geometry': {'location': {'lat': 52.23856199999999, 'lng': 21.049788}, 'viewport': {'northeast': {'lat': 52.2399109802915, 'lng': 21.0511369802915}, 'southwest': {'lat': 52.2372130197085, 'lng': 21.0484390197085}}}, 'icon': 'https://maps.gstatic.com/mapfiles/place_api/icons/v1/png_71/stadium-71.png', 'icon_background_color': '#4DB546', 'icon_mask_base_uri': 'https://maps.gstatic.com/mapfiles/place_api/icons/v2/stadium_pinlet', 'name': 'Brama nr 2', 'photos': [{'height': 2317, 'html_attributions': ['<a href="https://maps.google.com/maps/contrib/105888840760721736393">Eligiusz Kozłowski</a>'], 'photo_reference': 'Aap_uEA44uKBzSYqG3HjdMWx-BVORUXZDYihhW6Q_oD0nSG-hGzirMKl5RleHIbn3BqX-Q77QdfkDrOQbpLpvCnxvncRsYU8N72ijU6i7lqEzjAIMO1KZXfmqFpjbtUG_fvRv86KsnuSAw2JffEvSvKkTjzU0yZ7KXtOOe4t_saFJW56UAhI', 'width': 4295}], 'place_id': 'ChIJiS3nZ93NHkcRtQroH6oIO9w', 'plus_code': {'compound_code': '62QX+CW Warsaw, Poland', 'global_code': '9G4362QX+CW'}, 'rating': 3.8, 'reference': 'ChIJiS3nZ93NHkcRtQroH6oIO9w', 'scope': 'GOOGLE', 'types': ['stadium', 'point_of_interest', 'establishment'], 'user_ratings_total': 9, 'vicinity': 'Warsaw'}