[{"business_status": "OPERATIONAL", "geometry": {"location": {"lat": 52.220461, "lng": 21.040628}, "viewport": {"northeast": {"lat": 52.2223948302915, "lng": 21.04384765}, "southwest": {"lat": 52.2196968697085, "lng": 21.03811945}}}, "icon": "https://maps.gstatic.com/mapfiles/place_api/icons/v1/png_71/stadium-71.png", "icon_background_color": "#4DB546", "icon_mask_base_uri": "https://maps.gstatic.com/mapfiles/place_api/icons/v2/stadium_pinlet", "name": "Marshall J\u00f3zef Pi\u0142sudski's Municipal Stadium of Legia Warsaw", "photos": [{"height": 1215, "html_attributions": ["<a href=\"https://maps.google.com/maps/contrib/113409969552122276682\">Stadion Miejski Legii Warszawa im. Marsza\u0142ka J. Pi\u0142sudskiego</a>"], "photo_reference": "Aap_uEDGYspjt-vrSShiLMskOqhColqqZwsY7anE0wJOP6Sn5LFVLw-cp-b08_XwvfUFcv_x0rS1hRl07vHmJQKu_eJ6N4mbPiAsB9GI6x-PUhJzbGkbcSHrZ6nBJFbsBm5PqS6OjoEe7_5NFAZRzBVH0_tiNQaCSOX0MWrZPMXntzel8-Gg", "width": 1900}], "place_id": "ChIJj5n80gLNHkcRYTaiN_HGZu0", "plus_code": {"compound_code": "62CR+57 Warsaw, Poland", "global_code": "9G4362CR+57"}, "rating": 4.7, "reference": "ChIJj5n80gLNHkcRYTaiN_HGZu0", "scope": "GOOGLE", "types": ["stadium", "point_of_interest", "establishment"], "user_ratings_total": 11089, "vicinity": "\u0141azienkowska 3, Warszawa"}, {"business_status": "OPERATIONAL", "geometry": {"location": {"lat": 52.2129318, "lng": 21.0114598}, "viewport": {"northeast": {"lat": 52.2140080302915, "lng": 21.0124611302915}, "southwest": {"lat": 52.2113100697085, "lng": 21.0097631697085}}}, "icon": "https://maps.gstatic.com/mapfiles/place_api/icons/v1/png_71/stadium-71.png", "icon_background_color": "#4DB546", "icon_mask_base_uri": "https://maps.gstatic.com/mapfiles/place_api/icons/v2/stadium_pinlet", "name": "Stadion Politechniki Warszawskiej Syrenka", "photos": [{"height": 2988, "html_attributions": ["<a href=\"https://maps.google.com/maps/contrib/100055236322107462184\">Barteq Ostrowski</a>"], "photo_reference": "Aap_uECPq0qkGd13amXZNOVgeARWsr8loWwNnb9Ga4ChrqpGIdQ8f6rbTCBpNolbVlnLJLp8DZVhMft69RfZc0SFItHlljZ89Fj63RNYTK2dRPMCtmnjeXIOB55N7lptJ0YoOcn8MqPhmZP2c9YmteGUUsD3ws-RWwNivb2Qk1OMKIIAZRn-", "width": 5312}], "place_id": "ChIJhyJQNMPMHkcR4dNeL4I5ZZQ", "plus_code": {"compound_code": "6276+5H Warsaw, Poland", "global_code": "9G436276+5H"}, "rating": 4.3, "reference": "ChIJhyJQNMPMHkcR4dNeL4I5ZZQ", "scope": "GOOGLE", "types": ["stadium", "point_of_interest", "establishment"], "user_ratings_total": 355, "vicinity": "Stefana Batorego 10a, Warszawa"}, {"business_status": "OPERATIONAL", "geometry": {"location": {"lat": 52.21977749999999, "lng": 21.0378754}, "viewport": {"northeast": {"lat": 52.22103703029149, "lng": 21.03863218029151}, "southwest": {"lat": 52.2183390697085, "lng": 21.0359342197085}}}, "icon": "https://maps.gstatic.com/mapfiles/place_api/icons/v1/png_71/generic_business-71.png", "icon_background_color": "#7B9EB0", "icon_mask_base_uri": "https://maps.gstatic.com/mapfiles/place_api/icons/v2/generic_pinlet", "name": "Legia Tennis Stadium", "opening_hours": {"open_now": true}, "photos": [{"height": 3024, "html_attributions": ["<a href=\"https://maps.google.com/maps/contrib/100888753366084082994\">Darek Nowak</a>"], "photo_reference": "Aap_uECjZ4Hx0HYADkwzhF5rOE_ko7U3oA18rMrSEORirHSL25n-HOV4SBinQPr48MFncUN1D4vCExhjTVAPzLADoU8wUq3V30y_p-SK4x6HVMC0uP3yc-Fzajwtv_WPIeLT_XLCm1H-ZUkPBoX-3gzmQTL1YwMctAqtHKmWELhhO7hePG_Z", "width": 4032}], "place_id": "ChIJPeqAFh3NHkcR7N4SkNnglkM", "plus_code": {"compound_code": "629Q+W5 Warsaw, Poland", "global_code": "9G43629Q+W5"}, "rating": 4.2, "reference": "ChIJPeqAFh3NHkcR7N4SkNnglkM", "scope": "GOOGLE", "types": ["stadium", "point_of_interest", "establishment"], "user_ratings_total": 164, "vicinity": "My\u015bliwiecka 4A, Warszawa"}, {"business_status": "OPERATIONAL", "geometry": {"location": {"lat": 52.2394957, "lng": 21.0457909}, "viewport": {"northeast": {"lat": 52.24494374999998, "lng": 21.05349355}, "southwest": {"lat": 52.23533515000002, "lng": 21.03880175}}}, "icon": "https://maps.gstatic.com/mapfiles/place_api/icons/v1/png_71/stadium-71.png", "icon_background_color": "#4DB546", "icon_mask_base_uri": "https://maps.gstatic.com/mapfiles/place_api/icons/v2/stadium_pinlet", "name": "PGE Narodowy", "opening_hours": {"open_now": true}, "photos": [{"height": 786, "html_attributions": ["<a href=\"https://maps.google.com/maps/contrib/103473055360361893116\">PGE Narodowy</a>"], "photo_reference": "Aap_uECClMfngfWYVD_qh7c8-qGy04MoVoP9sgIdM57cUABJYEfDgBPfmCfen9XuAJSVzgR6Tz9wRKkDs4Sf1ycLVuH1tbw9oCpQiYwMm7xF4gnxLgSTbopIf-po3arH6OJsUjQ0I-6Hq1PXW2T1-cYLzLdAhAft1AA4fqLls0-K9zBwTfIH", "width": 1400}], "place_id": "ChIJW1rdqlPMHkcRixi1GPq-Q2I", "plus_code": {"compound_code": "62QW+Q8 Warsaw, Poland", "global_code": "9G4362QW+Q8"}, "rating": 4.6, "reference": "ChIJW1rdqlPMHkcRixi1GPq-Q2I", "scope": "GOOGLE", "types": ["stadium", "point_of_interest", "establishment"], "user_ratings_total": 45665, "vicinity": "Aleja Ksi\u0119cia J\u00f3zefa Poniatowskiego 1, Warszawa"}, {"business_status": "CLOSED_TEMPORARILY", "geometry": {"location": {"lat": 52.228322, "lng": 21.0091941}, "viewport": {"northeast": {"lat": 52.2295742802915, "lng": 21.0105980802915}, "southwest": {"lat": 52.2268763197085, "lng": 21.0079001197085}}}, "icon": "https://maps.gstatic.com/mapfiles/place_api/icons/v1/png_71/stadium-71.png", "icon_background_color": "#4DB546", "icon_mask_base_uri": "https://maps.gstatic.com/mapfiles/place_api/icons/v2/stadium_pinlet", "name": "M\u00f3j Gabinet", "permanently_closed": true, "place_id": "ChIJ0ytj7IvNHkcRQTFYuhM81NU", "plus_code": {"compound_code": "62H5+8M Warsaw, Poland", "global_code": "9G4362H5+8M"}, "reference": "ChIJ0ytj7IvNHkcRQTFYuhM81NU", "scope": "GOOGLE", "types": ["stadium", "point_of_interest", "establishment"], "vicinity": "Nowogrodzka 44, Warszawa"}, {"business_status": "CLOSED_TEMPORARILY", "geometry": {"location": {"lat": 52.2292456, "lng": 21.0425094}, "viewport": {"northeast": {"lat": 52.2305945802915, "lng": 21.04385838029151}, "southwest": {"lat": 52.2278966197085, "lng": 21.0411604197085}}}, "icon": "https://maps.gstatic.com/mapfiles/place_api/icons/v1/png_71/stadium-71.png", "icon_background_color": "#4DB546", "icon_mask_base_uri": "https://maps.gstatic.com/mapfiles/place_api/icons/v2/stadium_pinlet", "name": "\u015acie\u017cka\u015acie\u017cek", "permanently_closed": true, "photos": [{"height": 3968, "html_attributions": ["<a href=\"https://maps.google.com/maps/contrib/105384274169765216905\">Saucebox Saucebox</a>"], "photo_reference": "Aap_uECNXjN0jdIczvC0DomNQYbAc5ehPXBDGGiFDuWCZV50w3fpkgBNJbr2iO8WPtS0j_NXiMkVmxPhqp1hX6pGEl_v4J0Fe_3lPt2HqAtE2x5DImM_vlBvlMk6yg7NWWAShWaCbCW_J0_ndtj2CqnmKW178_C0or4WXdlvO3YQ2EgePIlX", "width": 8192}], "place_id": "ChIJQx9NWfHNHkcR6pwS_RAR90c", "plus_code": {"compound_code": "62HV+M2 Warsaw, Poland", "global_code": "9G4362HV+M2"}, "rating": 4, "reference": "ChIJQx9NWfHNHkcR6pwS_RAR90c", "scope": "GOOGLE", "types": ["stadium", "point_of_interest", "establishment"], "user_ratings_total": 1, "vicinity": "Warsaw"}, {"business_status": "CLOSED_TEMPORARILY", "geometry": {"location": {"lat": 52.2379603, "lng": 21.0426456}, "viewport": {"northeast": {"lat": 52.2393917802915, "lng": 21.0442263802915}, "southwest": {"lat": 52.2366938197085, "lng": 21.0415284197085}}}, "icon": "https://maps.gstatic.com/mapfiles/place_api/icons/v1/png_71/stadium-71.png", "icon_background_color": "#4DB546", "icon_mask_base_uri": "https://maps.gstatic.com/mapfiles/place_api/icons/v2/stadium_pinlet", "name": "Drakkar Arena - Polish Vikings Esports", "permanently_closed": true, "place_id": "ChIJGQZx0tHNHkcRzfL3hF5nW6k", "plus_code": {"compound_code": "62QV+53 Warsaw, Poland", "global_code": "9G4362QV+53"}, "reference": "ChIJGQZx0tHNHkcRzfL3hF5nW6k", "scope": "GOOGLE", "types": ["stadium", "point_of_interest", "establishment"], "vicinity": "Wybrze\u017ce Szczeci\u0144skie 1, Warszawa"}, {"business_status": "OPERATIONAL", "geometry": {"location": {"lat": 52.24018460000001, "lng": 21.0417441}, "viewport": {"northeast": {"lat": 52.2415575302915, "lng": 21.0431299802915}, "southwest": {"lat": 52.2388595697085, "lng": 21.0404320197085}}}, "icon": "https://maps.gstatic.com/mapfiles/place_api/icons/v1/png_71/stadium-71.png", "icon_background_color": "#4DB546", "icon_mask_base_uri": "https://maps.gstatic.com/mapfiles/place_api/icons/v2/stadium_pinlet", "name": "Brama nr 7", "photos": [{"height": 3016, "html_attributions": ["<a href=\"https://maps.google.com/maps/contrib/105156923563001453420\">\u0418\u0440\u0438\u043d\u0430 \u041f\u0435\u0442\u0440\u0430\u0448</a>"], "photo_reference": "Aap_uEDDTqslKVvAE1ppG89eM4X0JRxIaft8-JG8oHDeWrQQChjnZrtuYkL0MvhyFKuvpd6jmUB6h58iSR2u_2gG_PwI_9yiQ6dD-2tlIDTV1uxvg9fl_wxhmnDFRfxRn3piTkJSCbiOItM-S430NW7vAYEap9Uz7M-XvTDhsazGRuBp7mOB", "width": 4032}], "place_id": "ChIJRV4b3Q3NHkcRpVZ1UMyhe4M", "plus_code": {"compound_code": "62RR+3M Warsaw, Poland", "global_code": "9G4362RR+3M"}, "rating": 4.5, "reference": "ChIJRV4b3Q3NHkcRpVZ1UMyhe4M", "scope": "GOOGLE", "types": ["stadium", "point_of_interest", "establishment"], "user_ratings_total": 62, "vicinity": "Warsaw"}, {"business_status": "OPERATIONAL", "geometry": {"location": {"lat": 52.220876, "lng": 21.0385287}, "viewport": {"northeast": {"lat": 52.2226331302915, "lng": 21.0399541802915}, "southwest": {"lat": 52.2199351697085, "lng": 21.0372562197085}}}, "icon": "https://maps.gstatic.com/mapfiles/place_api/icons/v1/png_71/stadium-71.png", "icon_background_color": "#4DB546", "icon_mask_base_uri": "https://maps.gstatic.com/mapfiles/place_api/icons/v2/stadium_pinlet", "name": "Boisko Treningowe Legii Warszawa.", "photos": [{"height": 2448, "html_attributions": ["<a href=\"https://maps.google.com/maps/contrib/110541649086995283609\">ALESSIA Printex</a>"], "photo_reference": "Aap_uEAeCNc6x3mn_t4yHEURe5JhQtnB3yopjn0qDaxkc15jXGZKZ1-Lp7X_UsUuRUJw9iHkJtXLMxB566f0IfTR231a2R8HkT8rrUz2kO_ZJk-wc6q6qCHhXKOcdwCIQW-mTTPxWU5SJOQ0ngeE7N0NSklWYzoNTE7z48pU5Yx5QlRZUGs4", "width": 3264}], "place_id": "ChIJlffKMR3NHkcRXUIjl_lQkl4", "plus_code": {"compound_code": "62CQ+9C Warsaw, Poland", "global_code": "9G4362CQ+9C"}, "rating": 5, "reference": "ChIJlffKMR3NHkcRXUIjl_lQkl4", "scope": "GOOGLE", "types": ["stadium", "point_of_interest", "establishment"], "user_ratings_total": 7, "vicinity": "Ujazd\u00f3w, 00 001, Warszawa"}, {"business_status": "OPERATIONAL", "geometry": {"location": {"lat": 52.23792900000001, "lng": 21.0437289}, "viewport": {"northeast": {"lat": 52.2392557802915, "lng": 21.0451043302915}, "southwest": {"lat": 52.2365578197085, "lng": 21.0424063697085}}}, "icon": "https://maps.gstatic.com/mapfiles/place_api/icons/v1/png_71/stadium-71.png", "icon_background_color": "#4DB546", "icon_mask_base_uri": "https://maps.gstatic.com/mapfiles/place_api/icons/v2/stadium_pinlet", "name": "Brama nr 4", "place_id": "ChIJbVLYqd3NHkcRbQHBWckVCag", "plus_code": {"compound_code": "62QV+5F Warsaw, Poland", "global_code": "9G4362QV+5F"}, "rating": 5, "reference": "ChIJbVLYqd3NHkcRbQHBWckVCag", "scope": "GOOGLE", "types": ["stadium", "point_of_interest", "establishment"], "user_ratings_total": 1, "vicinity": "Warsaw"}, {"business_status": "OPERATIONAL", "geometry": {"location": {"lat": 52.2410152, "lng": 21.0428136}, "viewport": {"northeast": {"lat": 52.2424094302915, "lng": 21.04401448029151}, "southwest": {"lat": 52.2397114697085, "lng": 21.0413165197085}}}, "icon": "https://maps.gstatic.com/mapfiles/place_api/icons/v1/png_71/stadium-71.png", "icon_background_color": "#4DB546", "icon_mask_base_uri": "https://maps.gstatic.com/mapfiles/place_api/icons/v2/stadium_pinlet", "name": "Brama nr 9", "place_id": "ChIJ9Y8nsXjNHkcRlTWlvccY0UU", "plus_code": {"compound_code": "62RV+C4 Warsaw, Poland", "global_code": "9G4362RV+C4"}, "rating": 5, "reference": "ChIJ9Y8nsXjNHkcRlTWlvccY0UU", "scope": "GOOGLE", "types": ["stadium", "point_of_interest", "establishment"], "user_ratings_total": 4, "vicinity": "Warsaw"}, {"business_status": "OPERATIONAL", "geometry": {"location": {"lat": 52.2377648, "lng": 21.04730159999999}, "viewport": {"northeast": {"lat": 52.2391137802915, "lng": 21.0486505802915}, "southwest": {"lat": 52.2364158197085, "lng": 21.04595261970849}}}, "icon": "https://maps.gstatic.com/mapfiles/place_api/icons/v1/png_71/stadium-71.png", "icon_background_color": "#4DB546", "icon_mask_base_uri": "https://maps.gstatic.com/mapfiles/place_api/icons/v2/stadium_pinlet", "name": "Brama nr 3", "photos": [{"height": 3000, "html_attributions": ["<a href=\"https://maps.google.com/maps/contrib/110466322302438851881\">B\u0142a\u017cej K</a>"], "photo_reference": "Aap_uEAZQHjesnIbRf5v4W9BN2yfAj77o5Y75RiGXECigmCdvKsjEFfoXsDEzD_mNBAP03a3XaJ1k30QZvmzPQNwzwrnsnGfJZNBQEeTDjKJ6VZUuPflj3l4p4JvBYWU7gQ_TlXrJPOmDbF9hS9FBeWP0O2jdg11Uo5VBU9psoOv53ut4blc", "width": 4000}], "place_id": "ChIJffYCbxzNHkcRyrxMfX90KpE", "plus_code": {"compound_code": "62QW+4W Warsaw, Poland", "global_code": "9G4362QW+4W"}, "rating": 5, "reference": "ChIJffYCbxzNHkcRyrxMfX90KpE", "scope": "GOOGLE", "types": ["stadium", "point_of_interest", "establishment"], "user_ratings_total": 3, "vicinity": "Warsaw"}, {"business_status": "OPERATIONAL", "geometry": {"location": {"lat": 52.23856199999999, "lng": 21.049788}, "viewport": {"northeast": {"lat": 52.2399109802915, "lng": 21.0511369802915}, "southwest": {"lat": 52.2372130197085, "lng": 21.0484390197085}}}, "icon": "https://maps.gstatic.com/mapfiles/place_api/icons/v1/png_71/stadium-71.png", "icon_background_color": "#4DB546", "icon_mask_base_uri": "https://maps.gstatic.com/mapfiles/place_api/icons/v2/stadium_pinlet", "name": "Brama nr 2", "photos": [{"height": 2317, "html_attributions": ["<a href=\"https://maps.google.com/maps/contrib/105888840760721736393\">Eligiusz Koz\u0142owski</a>"], "photo_reference": "Aap_uEDwChtIeykEJXwClHLdoiaiS_oYbXg1GL-jz6RKrkF-2Bkw2QKT64xYnjCYSG2ZIPfC5VxPrIgMuEEggwC1YyP5lfQZPQPg81CduBwcT0ynafTwicopBWzMbLac2fqMWK0rg4tUMSnVBAufgEX8vRfHNgFsVj8cBlzhnT14AlwtO58L", "width": 4295}], "place_id": "ChIJiS3nZ93NHkcRtQroH6oIO9w", "plus_code": {"compound_code": "62QX+CW Warsaw, Poland", "global_code": "9G4362QX+CW"}, "rating": 3.8, "reference": "ChIJiS3nZ93NHkcRtQroH6oIO9w", "scope": "GOOGLE", "types": ["stadium", "point_of_interest", "establishment"], "user_ratings_total": 9, "vicinity": "Warsaw"}]